Mountain,Cleaned Name,Elevation,Latitude,Longitude,Peakbagger Link
"Ann, Mount ",Mount Ann,5840,48.8165,-121.6665,https://www.peakbagger.com/peak.aspx?pid=24837
"Baker, Mount ",Mount Baker,10781,48.7767,-121.8144,https://www.peakbagger.com/peak.aspx?pid=1633
Bedal Peak,Bedal Peak,6554,48.0686,-121.3543,https://www.peakbagger.com/peak.aspx?pid=1800
Big Devil Peak,Big Devil Peak,7055,48.6045,-121.2937,https://www.peakbagger.com/peak.aspx?pid=24813
Black Peak,Black Peak,8970,48.5234,-120.8162,https://www.peakbagger.com/peak.aspx?pid=1830
"Blum, Mt",Mt Blum,7680,48.7541,-121.4822,https://www.peakbagger.com/peak.aspx?pid=1640
"Buckner, Mount ",Mount Buckner,9114,48.4943,-120.9999,https://www.peakbagger.com/peak.aspx?pid=1852
"Challenger, Mount ",Mount Challenger,8207,48.8364,-121.3422,https://www.peakbagger.com/peak.aspx?pid=1650
Circle Peak,Circle Peak,5983,48.2205,-121.3226,https://www.peakbagger.com/peak.aspx?pid=25588
Coleman Pinnacle,Coleman Pinnacle,6403,48.8209,-121.7409,https://www.peakbagger.com/peak.aspx?pid=25965
Colonial Peak,Colonial Peak,7771,48.6614,-121.1219,https://www.peakbagger.com/peak.aspx?pid=1838
Columbia Peak,Columbia Peak,7172,47.9616,-121.3613,https://www.peakbagger.com/peak.aspx?pid=1813
Corteo Peak,Corteo Peak,8080,48.5046,-120.7881,https://www.peakbagger.com/peak.aspx?pid=1832
Crater Peak,Crater Peak,8128,48.7393,-120.9203,https://www.peakbagger.com/peak.aspx?pid=1701
Cutthroat Peak,Cutthroat Peak,8050,48.5264,-120.7035,https://www.peakbagger.com/peak.aspx?pid=1718
Del Campo Peak,Del Campo Peak,6610,47.9905,-121.4707,https://www.peakbagger.com/peak.aspx?pid=1808
Desolation Peak,Desolation Peak,6102,48.9113,-121.0164,https://www.peakbagger.com/peak.aspx?pid=1688
Dock Butte,Dock Butte,5239,48.6393,-121.8066,https://www.peakbagger.com/peak.aspx?pid=1623
Dome Peak,Dome Peak,8920,48.3019,-121.0321,https://www.peakbagger.com/peak.aspx?pid=1886
Eldorado Peak,Eldorado Peak,8868,48.5376,-121.1343,https://www.peakbagger.com/peak.aspx?pid=1846
"Erie, Mount ",Mount Erie,1273,48.4539,-122.6257,https://www.peakbagger.com/peak.aspx?pid=772
Fisher Peak,Fisher Peak,8040,48.5452,-120.824,https://www.peakbagger.com/peak.aspx?pid=1826
Forbidden Peak,Forbidden Peak,8815,48.5116,-121.0585,https://www.peakbagger.com/peak.aspx?pid=1849
Fortress Mountain,Fortress Mountain,8760,48.1594,-120.9334,https://www.peakbagger.com/peak.aspx?pid=1981
Gee Point,Gee Point,4974,48.429,-121.8267,https://www.peakbagger.com/peak.aspx?pid=24588
Glacier Peak,Glacier Peak,10520,48.1119,-121.1139,https://www.peakbagger.com/peak.aspx?pid=1972
Green Mountain,Green Mountain,6500,48.2915,-121.2386,https://www.peakbagger.com/peak.aspx?pid=1862
Hidden Lake Peaks,Hidden Lake Peaks,7088,48.4955,-121.2053,https://www.peakbagger.com/peak.aspx?pid=1847
Hurricane Peak,Hurricane Peak,6414,48.3351,-121.3174,https://www.peakbagger.com/peak.aspx?pid=25517
Hurry-up Peak,Hurry-up Peak (S Peak),7821,48.4339,-121.0379,https://www.peakbagger.com/peak.aspx?pid=1869
Jack Mountain,Jack Mountain,9066,48.7727,-120.9568,https://www.peakbagger.com/peak.aspx?pid=1699
Jumbo Mountain,Jumbo Mountain,5840,48.1958,-121.5994,https://www.peakbagger.com/peak.aspx?pid=19110
Kyes Peak,Kyes Peak,7280,47.9646,-121.3337,https://www.peakbagger.com/peak.aspx?pid=1812
Le Conte Mountain,Le Conte Mountain,7762,48.3794,-121.062,https://www.peakbagger.com/peak.aspx?pid=1875
Little Devil Peak,Little Devil Peak,6984,48.5766,-121.2684,https://www.peakbagger.com/peak.aspx?pid=24784
Little Mountain,Little Mountain,934,48.3967,-122.3085,https://www.peakbagger.com/peak.aspx?pid=25612
"Logan, Mount ",Mount Logan,9087,48.5367,-120.9525,https://www.peakbagger.com/peak.aspx?pid=1828
Lookout Mountain,Lookout Mountain,5699,48.5522,-121.3295,https://www.peakbagger.com/peak.aspx?pid=24595
Luna Peak,Luna Peak,8311,48.8306,-121.2718,https://www.peakbagger.com/peak.aspx?pid=1651
Park Butte Lookout,Park Butte Lookout,5440,48.7167,-121.8565,https://www.peakbagger.com/peak.aspx?pid=24596
"Prophet, Mt",Mt Prophet,7640,48.8489,-121.1626,https://www.peakbagger.com/peak.aspx?pid=1649
"Pugh, Mount ",Mount Pugh,7201,48.1435,-121.3742,https://www.peakbagger.com/peak.aspx?pid=1974
Ruby Mountain,Ruby Mountain,7408,48.6943,-121.0429,https://www.peakbagger.com/peak.aspx?pid=1814
Ruth Mountain,Ruth Mountain,7115,48.8598,-121.5329,https://www.peakbagger.com/peak.aspx?pid=1627
Sahale Peak,Sahale Peak,8680,48.4911,-121.0386,https://www.peakbagger.com/peak.aspx?pid=1854
Sauk Mountain,Sauk Mountain,5541,48.5229,-121.6007,https://www.peakbagger.com/peak.aspx?pid=24532
Sentinel Peak,Sentinel Peak,8261,48.3562,-121.0409,https://www.peakbagger.com/peak.aspx?pid=1879
"Shuksan, Mount ",Mount Shuksan,9131,48.8314,-121.6027,https://www.peakbagger.com/peak.aspx?pid=1630
Sloan Peak,Sloan Peak,7835,48.041,-121.3409,https://www.peakbagger.com/peak.aspx?pid=1803
Snowfield Peak,Snowfield Peak,8347,48.6352,-121.139,https://www.peakbagger.com/peak.aspx?pid=1840
Snowking Mountain,Snowking Mountain,7433,48.4083,-121.2781,https://www.peakbagger.com/peak.aspx?pid=1857
Sourdough Mountain,Sourdough Mountain,6107,48.7525,-121.1281,https://www.peakbagger.com/peak.aspx?pid=1661
"Spickard, Mount ",Mount Spickard,8979,48.9694,-121.2408,https://www.peakbagger.com/peak.aspx?pid=1610
"Torment, Mount ",Mount Torment,8120,48.5126,-121.0767,https://www.peakbagger.com/peak.aspx?pid=1848
Trappers Peak,Trappers Peak,5966,48.6883,-121.3224,https://www.peakbagger.com/peak.aspx?pid=25514
Tricouni Peak,Tricouni Peak,8102,48.5817,-121.0784,https://www.peakbagger.com/peak.aspx?pid=1842
"Triumph, Mount ",Mount Triumph,7240,48.7066,-121.3561,https://www.peakbagger.com/peak.aspx?pid=1642
"Watson, Mount ",Mount Watson,6220,48.6563,-121.5803,https://www.peakbagger.com/peak.aspx?pid=24228
West McMillan Spire,West McMillan Spire,8000,48.7739,-121.2758,https://www.peakbagger.com/peak.aspx?pid=1658
White Chuck Mountain,White Chuck Mountain,6989,48.2086,-121.417,https://www.peakbagger.com/peak.aspx?pid=1787
